OBJECTID,ASS_CONST_,ASS_CONST1,WARD_NO,WARD_NAME,POP_M,POP_F,POP_SC,POP_ST,POP_TOTAL,AREA_SQ_KM,LAT,LON,RESERVATIO,TOT_HH
1.0,150,Yelahanka,2.0,Chowdeswari Ward,10402.0,9224.0,2630.0,286.0,19626.0,7.06,13.121709445639,77.58042209477,General,
2.0,150,Yelahanka,3.0,Atturu,13129.0,10891.0,2921.0,665.0,24020.0,10.15,13.1028048689685,77.560037759808,General (Women),
3.0,150,Yelahanka,4.0,Yelahanka Satellite Town,13457.0,12325.0,3687.0,601.0,25782.0,4.9,13.0909866591769,77.5839254307448,Backward Category - A,
4.0,151,K.R. Puram,51.0,Vijnanapura,18118.0,16969.0,6454.0,228.0,35087.0,2.05,13.0060632642652,77.6695653043393,Scheduled Caste,
5.0,151,K.R. Puram,53.0,Basavanapura,11494.0,10518.0,4115.0,325.0,22012.0,6.28,13.016847032689,77.7154564678998,General,
6.0,151,K.R. Puram,54.0,Hudi,11076.0,9624.0,4364.0,297.0,20700.0,15.3,13.022375521429,77.7054933252136,Backward Category - A,
7.0,151,K.R. Puram,55.0,Devasandra,11604.0,10453.0,3225.0,377.0,22057.0,3.52,13.0017973536303,77.6891215903739,Backward Category - B (Woman),
8.0,151,K.R. Puram,56.0,A Narayanapura,15406.0,14014.0,5827.0,118.0,29420.0,2.15,12.9944744122469,77.6725826643836,Backward Category - A,
9.0,151,K.R. Puram,81.0,Vijnana Nagar,13218.0,11539.0,3761.0,234.0,24757.0,5.73,12.9784929770063,77.6817701253513,General (Women),
10.0,151,K.R. Puram,87.0,HAL Airport,17594.0,15472.0,5487.0,464.0,33066.0,6.8,12.9565365691412,77.6715015074689,General,
11.0,152,Byatarayanapura,10.0,Dodda Bommasandra,11327.0,10313.0,3188.0,286.0,21640.0,4.2,13.0565951296542,77.558692495766,General,
12.0,152,Byatarayanapura,11.0,Kuvempu Nagar,13489.0,11806.0,4961.0,942.0,25295.0,7.59,13.0720798190444,77.5418693523628,Backward Category A (Women),
13.0,152,Byatarayanapura,5.0,Jakkuru,10906.0,10058.0,3470.0,327.0,20964.0,23.96,13.0962502934223,77.6233139550485,General (Women),
14.0,152,Byatarayanapura,6.0,Thanisandra,10384.0,10018.0,3924.0,147.0,20402.0,9.97,13.0565248615012,77.6224107410182,Backward Category A (Women),
15.0,152,Byatarayanapura,7.0,Byatarayanapura,16665.0,14735.0,3085.0,1383.0,31400.0,9.6,13.0610706104047,77.5973709782568,Scheduled Tribe (Woman),
16.0,152,Byatarayanapura,8.0,Kodigehalli,11525.0,10110.0,2724.0,372.0,21635.0,3.81,13.0538455989976,77.5790877633288,Backward Category - B,
17.0,152,Byatarayanapura,9.0,Vidyaranyapura,12268.0,10868.0,1982.0,505.0,23136.0,9.79,13.0770924126944,77.5694540248082,General,
18.0,153,Yeshwantpura,130.0,Ullalu,10468.0,9864.0,3751.0,207.0,20332.0,8.92,12.9467161449535,77.4846181877041,Backward Category - A,
19.0,153,Yeshwantpura,159.0,Kengeri,12879.0,11991.0,2440.0,220.0,24870.0,4.77,12.9150685525484,77.4775276168771,General,
20.0,153,Yeshwantpura,40.0,Dodda Bidarakallu,10204.0,9145.0,3055.0,1256.0,19349.0,12.7,13.0180758679946,77.4845431002247,General (Women),
21.0,153,Yeshwantpura,72.0,Herohalli,10421.0,9247.0,2026.0,549.0,19668.0,7.7,12.9828072657752,77.4871585444258,Backward Category - B,
22.0,154,Rajarajeswari Nagar,16.0,Jalahalli,15087.0,13950.0,6257.0,1156.0,29037.0,5.16,13.046443698847,77.539338786534,Scheduled Caste,
23.0,154,Rajarajeswari Nagar,160.0,Rajarajeshwari Nagar,12092.0,11190.0,2605.0,306.0,23282.0,11.35,12.9187572603313,77.5221415116967,General,
24.0,154,Rajarajeswari Nagar,17.0,J P Park,18629.0,16545.0,3344.0,736.0,35174.0,2.05,13.0366283169315,77.5524237413753,General,
25.0,154,Rajarajeswari Nagar,37.0,Yeshwanthpura,18861.0,17111.0,3555.0,560.0,35972.0,0.78,13.0260290008921,77.5538567686232,General,
26.0,154,Rajarajeswari Nagar,38.0,HMT Ward,16281.0,13483.0,3761.0,942.0,29764.0,5.21,13.0319047414786,77.5317054301638,General (Women),
27.0,154,Rajarajeswari Nagar,42.0,Lakshmi Devi Nagar,13425.0,12153.0,4568.0,704.0,25578.0,1.33,13.0206027348153,77.5324717737587,Backward Category - A,
28.0,154,Rajarajeswari Nagar,69.0,Laggere,13425.0,11945.0,1403.0,454.0,25370.0,1.58,13.0076873581854,77.5238999866999,General,
29.0,154,Rajarajeswari Nagar,73.0,Kottegepalya,15812.0,13288.0,2299.0,431.0,29100.0,5.84,12.9824564568696,77.5140904058987,General,
30.0,155,Dasarahalli,12.0,Shettihalli,15023.0,13286.0,6418.0,522.0,28309.0,8.97,13.0679966887335,77.5194091911426,Scheduled Caste,
31.0,155,Dasarahalli,13.0,Mallasandra,14066.0,12187.0,2749.0,289.0,26253.0,1.31,13.0544363601233,77.5151259164154,Backward Category A (Women),
32.0,155,Dasarahalli,14.0,Bagalakunte,15159.0,13147.0,1627.0,641.0,28306.0,4.43,13.0588925021938,77.5002800050134,General,
33.0,155,Dasarahalli,15.0,T Dasarahalli,14363.0,11687.0,1364.0,187.0,26050.0,0.88,13.045358023191,77.5147357511792,General (Women),
34.0,155,Dasarahalli,39.0,Chokkasandra,16821.0,13296.0,2571.0,383.0,30117.0,4.0,13.0380504145944,77.5063066860491,Backward Category - A,
35.0,155,Dasarahalli,41.0,Peenya Industrial Area,15255.0,12212.0,1595.0,1595.0,27467.0,5.59,13.0209017997376,77.5086112760292,General,
36.0,155,Dasarahalli,70.0,Rajagopal Nagar,15691.0,12913.0,2364.0,606.0,28604.0,2.18,13.0061996149424,77.5122492470683,General,
37.0,155,Dasarahalli,71.0,Hegganahalli,16766.0,14123.0,1879.0,527.0,30889.0,1.96,13.0010055251581,77.5009754398035,General,
38.0,156,Mahalakshmi Layout,102.0,Vrisabhavathi Nagar,18654.0,15685.0,1187.0,333.0,34339.0,0.99,12.9897724158581,77.5258790256208,Backward Category A (Women),
39.0,156,Mahalakshmi Layout,43.0,Nandini Layout,18113.0,16205.0,4421.0,548.0,34318.0,1.41,13.013449936266,77.5341416116112,General,
40.0,156,Mahalakshmi Layout,44.0,Marappana Palya,18108.0,15894.0,5202.0,376.0,34002.0,2.05,13.0174803547776,77.5462421542391,General (Women),
41.0,156,Mahalakshmi Layout,67.0,Nagapura,18268.0,17285.0,2520.0,320.0,35553.0,1.79,13.0041261575396,77.5481305165233,Backward Category - A,
42.0,156,Mahalakshmi Layout,68.0,Mahalakshimpuram,19202.0,16774.0,1258.0,311.0,35976.0,0.95,13.0073496521638,77.540042587153,Backward Category - B,
43.0,156,Mahalakshmi Layout,74.0,Shakthi Ganapathi Nagar,17953.0,16577.0,5595.0,366.0,34530.0,0.7,12.9950480331202,77.5315839709294,General (Women),
44.0,156,Mahalakshmi Layout,75.0,Shankar Matt,18802.0,16877.0,1280.0,308.0,35679.0,1.08,12.9999842826119,77.5344077697553,General,
45.0,157,Malleswaram,35.0,Aramane Nagara,16221.0,14176.0,2376.0,319.0,30397.0,7.47,13.0153491711673,77.5770224615771,General,
46.0,157,Malleswaram,36.0,Mattikere,19092.0,16790.0,4459.0,830.0,35882.0,0.91,13.0325895561164,77.5610338494586,General,
47.0,157,Malleswaram,45.0,Malleswaram,18994.0,17327.0,3493.0,367.0,36321.0,1.81,13.0140735271848,77.5616732070745,Backward Category - A,
48.0,157,Malleswaram,64.0,Rajamahal Guttahalli,17243.0,16721.0,3922.0,250.0,33964.0,0.73,13.0013721395302,77.5790601846204,General (Women),
49.0,157,Malleswaram,65.0,Kadu Malleshwar Ward,16970.0,17083.0,612.0,138.0,34053.0,1.36,13.0023854255042,77.5684910900638,Backward Category - A,
50.0,157,Malleswaram,66.0,Subramanya Nagar,17876.0,17007.0,1040.0,294.0,34883.0,0.94,13.0070401322849,77.5571089856109,General,
51.0,157,Malleswaram,76.0,Gayithri Nagar,18360.0,17029.0,980.0,226.0,35389.0,0.64,12.9974360955686,77.5605137788374,General (Women),
52.0,158,Hebbal,18.0,Radhakrishna Temple Ward,13862.0,12349.0,3320.0,372.0,26211.0,1.95,13.0383051456651,77.5705716890458,Backward Category - A,
53.0,158,Hebbal,19.0,Sanjaya Nagar,12600.0,11578.0,848.0,237.0,24178.0,1.54,13.0393013347298,77.5777997091635,Backward Category - B,
54.0,158,Hebbal,20.0,Ganga Nagar,13688.0,12568.0,2842.0,286.0,26256.0,2.26,13.0325549216468,77.5863604495174,General,
55.0,158,Hebbal,21.0,Hebbala,12560.0,11601.0,3131.0,576.0,24161.0,1.23,13.0340544601812,77.5930187449416,General,
56.0,158,Hebbal,22.0,Vishwanath Nagenahalli,13594.0,12103.0,2422.0,402.0,25697.0,1.47,13.0351744765503,77.603740582364,Backward Category - B (Woman),
57.0,158,Hebbal,33.0,Manorayanapalya,18200.0,16577.0,838.0,169.0,34777.0,0.81,13.0267426995105,77.5973052921654,Backward Category A (Women),
58.0,158,Hebbal,34.0,Gangenahalli,13128.0,11826.0,2373.0,185.0,24954.0,1.09,13.017774892654,77.5888153931365,General,
59.0,158,Hebbal,46.0,Jayachamarajendra Nagar,16353.0,14390.0,2465.0,272.0,30743.0,0.89,13.0171716167441,77.5959757654137,General,
60.0,159,Pulakeshi Nagar (SC),31.0,Kushal Nagar,17506.0,16540.0,5167.0,129.0,34046.0,0.65,13.016273310793,77.6150174090356,General (Women),
61.0,159,Pulakeshi Nagar (SC),32.0,Kaval Bairasandra,13914.0,12636.0,3669.0,178.0,26550.0,1.59,13.0263505691114,77.6085689953968,General (Woman),
62.0,159,Pulakeshi Nagar (SC),47.0,Devara Jeevanahalli,17296.0,16187.0,7021.0,167.0,33483.0,1.37,13.0154531442964,77.6027525099095,Scheduled Caste,
63.0,159,Pulakeshi Nagar (SC),48.0,Muneshwara Nagar,15557.0,14951.0,6605.0,33.0,30508.0,0.48,13.0141600375146,77.6109785409947,Scheduled Caste (Woman),
64.0,159,Pulakeshi Nagar (SC),60.0,Sagayarapuram,17525.0,17349.0,10444.0,132.0,34874.0,0.77,13.0055771246835,77.6168659479228,Scheduled Caste,
65.0,159,Pulakeshi Nagar (SC),61.0,S K Garden,17387.0,16552.0,7226.0,88.0,33939.0,1.31,13.0053276326838,77.6070579867665,Scheduled Caste (Woman),
66.0,159,Pulakeshi Nagar (SC),78.0,Pulikeshinagar,13858.0,14291.0,2474.0,77.0,28149.0,1.72,12.9953435378928,77.6118558337293,General,
67.0,160,Sarvagna Nagar,23.0,Nagavara,18216.0,17048.0,4331.0,157.0,35264.0,2.06,13.0315090727742,77.6166958347712,General (Women),
68.0,160,Sarvagna Nagar,24.0,HBR Layout,16506.0,15650.0,4584.0,188.0,32156.0,4.64,13.0320201234578,77.6301273655594,Backward Category - A,
69.0,160,Sarvagna Nagar,27.0,Banasavadi,16634.0,15364.0,3419.0,263.0,31998.0,3.46,13.0146989651032,77.6489273734027,General,
70.0,160,Sarvagna Nagar,28.0,Kammanahalli,17925.0,16894.0,4031.0,213.0,34819.0,1.03,13.0083736988122,77.6359927313585,General,
71.0,160,Sarvagna Nagar,29.0,Kacharkanahalli,15037.0,13981.0,2593.0,321.0,29018.0,1.72,13.0194167842318,77.6340107399307,General,
72.0,160,Sarvagna Nagar,30.0,Kadugondanahalli,17902.0,16940.0,3897.0,59.0,34842.0,0.71,13.015543513984,77.6198640587447,General (Women),
73.0,160,Sarvagna Nagar,49.0,Lingarajapura,16267.0,16108.0,5013.0,289.0,32375.0,0.89,13.0099459400038,77.6269718546523,General (Women),
74.0,160,Sarvagna Nagar,59.0,Maruthi Seva Nagar,17862.0,17949.0,8453.0,89.0,35811.0,2.37,12.999921081914,77.6300806168447,Scheduled Caste,
75.0,161,C.V. Ramannagar (SC),113.0,Konena Agrahara,15479.0,13865.0,4133.0,110.0,29344.0,2.12,12.9557797461543,77.6522047334089,General,
76.0,161,C.V. Ramannagar (SC),50.0,Benniganahalli,17006.0,14979.0,7346.0,947.0,31985.0,4.92,12.9995016788585,77.6517042882124,Scheduled Caste,
77.0,161,C.V. Ramannagar (SC),57.0,C V Raman Nagar,15822.0,13938.0,2710.0,640.0,29760.0,3.58,12.9839496974537,77.6652028542387,Backward Category - A,
78.0,161,C.V. Ramannagar (SC),58.0,New Tippasandara,18212.0,16365.0,2498.0,368.0,34577.0,3.34,12.9765036486498,77.6567910593107,General (Women),
79.0,161,C.V. Ramannagar (SC),79.0,Sarvagna Nagar,17879.0,17064.0,12221.0,261.0,34943.0,3.66,12.9891700284278,77.6310394811241,Scheduled Caste (Woman),
80.0,161,C.V. Ramannagar (SC),80.0,Hoysala Nagar,18041.0,17849.0,10775.0,220.0,35890.0,2.05,12.9784561074979,77.6387829786122,Scheduled Caste (Woman),
81.0,161,C.V. Ramannagar (SC),88.0,Jeevanbhima Nagar,19021.0,17131.0,8116.0,281.0,36152.0,1.89,12.9646516380309,77.6500328479455,Scheduled Caste,
82.0,162,Shivaji Nagar,110.0,Sampangiram Nagar,16973.0,16147.0,1503.0,375.0,33120.0,4.45,12.9767945721309,77.5953720295075,Backward Category - A,
83.0,162,Shivaji Nagar,62.0,Ramaswamy Palya,16855.0,15545.0,7046.0,116.0,32400.0,0.83,13.0059760284195,77.5990766390158,Scheduled Caste,
84.0,162,Shivaji Nagar,63.0,Jayamahal,12014.0,12051.0,3291.0,380.0,24065.0,1.44,12.9951067097216,77.5999310114007,General (Women),
85.0,162,Shivaji Nagar,90.0,Halsoor,20526.0,15365.0,6474.0,866.0,35891.0,1.68,12.9797043313289,77.6198221307318,Scheduled Caste,
86.0,162,Shivaji Nagar,91.0,Bharathi Nagar,16472.0,16160.0,1613.0,185.0,32632.0,0.78,12.987014409491,77.6110403571514,General,
87.0,162,Shivaji Nagar,92.0,Shivaji Nagar,18456.0,17284.0,1438.0,402.0,35740.0,0.43,12.9887016750541,77.6058728426691,Backward Category A (Women),
88.0,162,Shivaji Nagar,93.0,Vasanth Nagar,13250.0,12382.0,2198.0,423.0,25632.0,3.12,12.9891311126017,77.5858046982688,General,
89.0,163,Shanthi Nagar,111.0,Shantala Nagar,15570.0,14655.0,4033.0,104.0,30225.0,3.99,12.9698666568526,77.6064642945921,General,
90.0,163,Shanthi Nagar,112.0,Domlur,17827.0,16876.0,5338.0,295.0,34703.0,1.75,12.9633614843384,77.6380404127316,General (Women),
91.0,163,Shanthi Nagar,114.0,Agaram,20108.0,15524.0,12434.0,167.0,35632.0,11.26,12.9442634034865,77.6390466853178,Scheduled Caste (Woman),
92.0,163,Shanthi Nagar,115.0,Vannarpet,17991.0,17541.0,9468.0,1099.0,35532.0,0.74,12.9542092834691,77.61894093987,Scheduled Caste,
93.0,163,Shanthi Nagar,116.0,Nilasandra,18953.0,17326.0,4888.0,1365.0,36279.0,0.54,12.9511599438781,77.614644130188,Scheduled Tribe,
94.0,163,Shanthi Nagar,117.0,Shanthi Nagar,18672.0,17754.0,4113.0,650.0,36426.0,2.7,12.9573236548961,77.603705049467,General (Women),
95.0,163,Shanthi Nagar,89.0,Jogupalya,17710.0,16901.0,3570.0,661.0,34611.0,0.91,12.973724534752,77.6325939694915,General,
96.0,164,Gandhi Nagar,109.0,Chickpete,17670.0,16028.0,228.0,75.0,33698.0,0.71,12.9706877407971,77.5770978874836,General,
97.0,164,Gandhi Nagar,120.0,Cottonpete,19048.0,17534.0,3115.0,305.0,36582.0,0.76,12.9703588123314,77.5662871520615,Backward Category A (Women),
98.0,164,Gandhi Nagar,121.0,Binnipete,17447.0,16499.0,16499.0,692.0,33946.0,0.77,12.9717984207048,77.5590969095086,Backward Category A (Women),
99.0,164,Gandhi Nagar,77.0,Dattatreya Temple,17640.0,16596.0,3351.0,256.0,34236.0,0.71,12.9965554677515,77.5741380029964,General,
100.0,164,Gandhi Nagar,94.0,Gandhinagar,19566.0,15744.0,6153.0,167.0,35310.0,1.93,12.9815648080642,77.5756650129311,General,
101.0,164,Gandhi Nagar,95.0,Subhash Nagar,18163.0,17264.0,11378.0,441.0,35427.0,1.32,12.9826668015183,77.5686274619372,Scheduled Caste,
102.0,164,Gandhi Nagar,96.0,Okalipuram,18609.0,17266.0,6352.0,287.0,35875.0,0.83,12.9827837272182,77.563816623965,Scheduled Caste (Woman),
103.0,165,Rajaji Nagar,100.0,Basaveshwara Nagar,14204.0,12798.0,1236.0,234.0,27002.0,0.84,12.9908084449253,77.5421301173104,Backward Category - A,
104.0,165,Rajaji Nagar,101.0,Kamakshipalya,13638.0,12104.0,2004.0,321.0,25742.0,0.91,12.9867975705395,77.5338707039502,General,
105.0,165,Rajaji Nagar,107.0,Shivanagara,18940.0,17039.0,858.0,271.0,35979.0,0.78,12.9885035896526,77.5495200478752,General,
106.0,165,Rajaji Nagar,108.0,Sriramamandir,17348.0,16265.0,905.0,285.0,33613.0,1.06,12.9837673095898,77.5558908790906,Backward Category A (Women),
107.0,165,Rajaji Nagar,97.0,Dayananda Nagar,17767.0,16828.0,10651.0,170.0,34595.0,0.45,12.9910970569635,77.5641946734242,Scheduled Caste (Woman),
108.0,165,Rajaji Nagar,98.0,Prakash Nagar,18641.0,16824.0,1994.0,140.0,35465.0,0.56,12.9930942205099,77.5582212219401,General,
109.0,165,Rajaji Nagar,99.0,Rajaji Nagar,17221.0,16010.0,2175.0,241.0,33231.0,0.86,12.9945988368238,77.5501925896872,Backward Category - A,
110.0,166,Govindaraja Nagar,103.0,Kaveripura,19274.0,15982.0,924.0,524.0,35256.0,1.64,12.9797422678665,77.5248978783418,Backward Category - A,
111.0,166,Govindaraja Nagar,104.0,Govindaraja Nagar,13565.0,12208.0,2278.0,274.0,25773.0,0.77,12.9771164127201,77.5366824799528,Backward Category - A,
112.0,166,Govindaraja Nagar,105.0,Agrahara Dasarahalli,14141.0,12716.0,3172.0,433.0,26857.0,0.8,12.9804974028429,77.5415353943762,Backward Category A (Women),
113.0,166,Govindaraja Nagar,106.0,Dr. Raj Kumar Ward,13012.0,11740.0,2111.0,335.0,24752.0,0.99,12.979654172134,77.5484753583426,General,
114.0,166,Govindaraja Nagar,125.0,Marenahalli,10430.0,9638.0,698.0,391.0,20068.0,0.69,12.9718892616902,77.5328436441007,Backward Category A (Women),
115.0,166,Govindaraja Nagar,126.0,Maruthi Mandir ward,11421.0,10363.0,1072.0,285.0,21784.0,0.79,12.9667105528406,77.5284643519759,General,
116.0,166,Govindaraja Nagar,127.0,Mudalapalya,12816.0,11671.0,854.0,529.0,24487.0,0.98,12.9692392151885,77.521640582415,Backward Category A (Women),
117.0,166,Govindaraja Nagar,128.0,Nagarabhavi,10408.0,9861.0,1343.0,123.0,20269.0,1.6,12.9558427307937,77.519366146173,General,
118.0,166,Govindaraja Nagar,131.0,Nayandahalli,11987.0,10891.0,3499.0,379.0,22878.0,2.07,12.9451408764406,77.5199607392573,General (Women),
119.0,167,Vijaya Nagar,122.0,Kempapura Agrahara,17355.0,16381.0,894.0,914.0,33736.0,0.36,12.9723126235624,77.5554793838085,Backward Category A (Women),
120.0,167,Vijaya Nagar,123.0,Vijayanagar,19009.0,17068.0,1297.0,258.0,36077.0,0.73,12.9720925542614,77.5470438346722,General,
121.0,167,Vijaya Nagar,124.0,Hosahalli,16662.0,15441.0,3613.0,403.0,32103.0,0.89,12.9676691462426,77.5438119924571,Backward Category - A,
122.0,167,Vijaya Nagar,132.0,Attiguppe,13989.0,12817.0,1318.0,237.0,26806.0,1.39,12.9581117077057,77.5293089282806,General,
123.0,167,Vijaya Nagar,133.0,Hampi Nagar,15716.0,14639.0,3502.0,414.0,30355.0,1.11,12.959949194647,77.5376145866468,General,
124.0,167,Vijaya Nagar,134.0,Bapuji Nagar,18996.0,17238.0,1564.0,312.0,36234.0,0.68,12.9579760999735,77.5432214136966,Backward Category - A,
125.0,167,Vijaya Nagar,157.0,Gali Anjenaya Temple ward,14466.0,12798.0,1874.0,309.0,27264.0,1.14,12.9501592455071,77.5446560301153,General,
126.0,167,Vijaya Nagar,158.0,Deepanjali Nagar,16655.0,14269.0,1776.0,367.0,30924.0,2.09,12.9445404293539,77.5362326389086,Backward Category A (Women),
127.0,168,Chamarajpet,135.0,Padarayanapura,18371.0,16842.0,378.0,110.0,35213.0,0.31,12.9637025463239,77.5488120504647,Backward Category A (Women),
128.0,168,Chamarajpet,136.0,Jagajivanaramnagar,17570.0,16188.0,5330.0,342.0,33758.0,0.63,12.9605447475681,77.5519414463642,General (Women),
129.0,168,Chamarajpet,137.0,Rayapuram,16928.0,16021.0,10777.0,233.0,32949.0,0.45,12.9649880815167,77.5563781786261,Scheduled Caste,
130.0,168,Chamarajpet,138.0,Chalavadipalya,13181.0,12138.0,12632.0,86.0,25319.0,0.4,12.9645793210376,77.5644482281296,Scheduled Caste,
131.0,168,Chamarajpet,139.0,K R Market,14982.0,13532.0,8845.0,360.0,28514.0,0.81,12.9639680609056,77.5718004624152,Scheduled Caste,
132.0,168,Chamarajpet,140.0,Chamrajapet,17193.0,16205.0,948.0,469.0,33398.0,1.03,12.9581840004128,77.5637756014863,Backward Category - A,
133.0,168,Chamarajpet,141.0,Azad Nagar,18584.0,17157.0,2189.0,780.0,35741.0,0.67,12.9547171397323,77.554027303718,General (Women),
134.0,169,Chickpet,118.0,Sudham Nagara,16552.0,15650.0,8344.0,303.0,32202.0,1.01,12.9593349100093,77.586192712433,Scheduled Caste (Woman),
135.0,169,Chickpet,119.0,Dharmaraya Swamy Temple,18193.0,15006.0,2037.0,108.0,33199.0,1.1,12.963133327422,77.580510578405,Backward Category - A,
136.0,169,Chickpet,142.0,Sunkenahalli,18645.0,17513.0,1966.0,243.0,36158.0,1.49,12.9486914803666,77.5678744056857,General,
137.0,169,Chickpet,143.0,Vishveshwara Puram,18362.0,17731.0,1744.0,188.0,36093.0,2.47,12.9504863664593,77.5798830579196,General,
138.0,169,Chickpet,144.0,Siddapura,16731.0,15463.0,4498.0,186.0,32194.0,0.66,12.9438446355212,77.5930164521246,General,
139.0,169,Chickpet,145.0,Hombegowda Nagara,18693.0,17762.0,3979.0,221.0,36455.0,1.41,12.9505957757457,77.5948740249626,General,
140.0,169,Chickpet,153.0,Jayanagar,18173.0,17790.0,3743.0,220.0,35963.0,2.5,12.9376337000747,77.5894196695984,General (Women),
141.0,170,Basavanagudi,155.0,Hanumanth Nagar,18137.0,16928.0,857.0,290.0,35065.0,0.99,12.9471215024395,77.5598838663128,General (Women),
142.0,170,Basavanagudi,156.0,Srinagar,18793.0,17252.0,272.0,156.0,36045.0,0.8,12.9453275336224,77.5534943697637,General,
143.0,170,Basavanagudi,154.0,Basavanagudi,18396.0,17619.0,956.0,159.0,36015.0,1.17,12.9373753661626,77.5687334210958,General,
144.0,170,Basavanagudi,162.0,Girinagar,18208.0,16704.0,474.0,125.0,34912.0,1.77,12.9376240163993,77.5455754936583,General (Women),
145.0,170,Basavanagudi,163.0,Katriguppe,18769.0,16967.0,574.0,167.0,35736.0,1.11,12.9316414559219,77.5522232871992,Backward Category - A,
146.0,170,Basavanagudi,164.0,Vidyapeeta ward,18083.0,16452.0,1261.0,357.0,34535.0,34535.0,12.9342004520233,77.5594762586734,Backward Category - A,
147.0,171,Padmanaba Nagar,161.0,Hosakerehalli,11041.0,10144.0,1192.0,285.0,21185.0,1.34,12.9277969317167,77.5395058294504,General,
148.0,171,Padmanaba Nagar,165.0,Ganesh Mandir ward,11988.0,11113.0,652.0,179.0,23101.0,1.63,12.9248031449056,77.5640458573888,Backward Category - A,
149.0,171,Padmanaba Nagar,166.0,Karisandra,15445.0,14761.0,2575.0,365.0,30206.0,1.1,12.9243524235242,77.5740169457256,General (Women),
150.0,171,Padmanaba Nagar,167.0,Yediyur,17857.0,16734.0,1111.0,180.0,34591.0,1.23,12.934251739139,77.5760804828518,Backward Category - A,
151.0,171,Padmanaba Nagar,180.0,Banashankari Temple ward,17451.0,16571.0,2548.0,494.0,34022.0,0.68,12.9133515290769,77.5698323279022,General,
152.0,171,Padmanaba Nagar,181.0,Kumaraswamy Layout,18649.0,16735.0,1428.0,426.0,35384.0,1.87,12.9069901964838,77.5618576805592,Backward Category - A,
153.0,171,Padmanaba Nagar,182.0,Padmanabha Nagar,13131.0,12323.0,1150.0,111.0,25454.0,1.68,12.9135013256266,77.5560571929402,General,
154.0,172,B.T.M. Layout,146.0,Lakkasandra,14909.0,13394.0,4562.0,422.0,28303.0,1.29,12.9411090124204,77.6048043772362,General,
155.0,172,B.T.M. Layout,147.0,Adugodi,15676.0,14269.0,5381.0,411.0,29945.0,1.6,12.9432388832612,77.6130791124901,General,
156.0,172,B.T.M. Layout,148.0,Ejipura,15316.0,13789.0,4906.0,499.0,29105.0,1.61,12.9423159169765,77.6270336149298,General (Women),
157.0,172,B.T.M. Layout,151.0,Koramangala,18434.0,16925.0,3246.0,232.0,35359.0,3.71,12.9313404051701,77.6246494460865,Backward Category A (Women),
158.0,172,B.T.M. Layout,152.0,Suddagunte Palya,19341.0,16569.0,3193.0,299.0,35910.0,1.74,12.92997135113,77.6082147179137,General,
159.0,173,Jaya Nagar,178.0,Sarakki,13870.0,12837.0,1379.0,173.0,26707.0,1.34,12.9079402946364,77.5829497522443,General,
160.0,172,B.T.M. Layout,173.0,Jakkasandra,13045.0,11043.0,2829.0,536.0,24088.0,1.52,12.9205909717835,77.6309886977238,General (Women),
161.0,172,B.T.M. Layout,176.0,BTM Layout,18502.0,15934.0,1512.0,247.0,34436.0,2.13,12.9118377209653,77.6093452875564,General,
162.0,173,Jaya Nagar,168.0,Pattabhiram Nagar,15751.0,15238.0,1473.0,179.0,30989.0,1.75,12.9245450128768,77.5875454398899,General,
163.0,173,Jaya Nagar,169.0,Byrasandra,15760.0,14878.0,3767.0,73.0,30638.0,0.87,12.9315978380753,77.5889403697453,Backward Category - A,
164.0,173,Jaya Nagar,179.0,Shakambari Nagar,11733.0,11506.0,607.0,162.0,23239.0,1.85,12.9170881910162,77.5797747306037,Backward Category - A,
165.0,174,Mahadevapura,149.0,Varthuru,13033.0,12034.0,5581.0,183.0,25067.0,26.98,12.935373342926,77.733613606496,General,
166.0,174,Mahadevapura,150.0,Bellanduru,10818.0,9708.0,5838.0,101.0,20526.0,26.37,12.9228741800138,77.6802085907247,Backward Category - B,
167.0,174,Mahadevapura,82.0,Garudachar Playa,11371.0,9549.0,3635.0,364.0,20920.0,6.8,12.9859006423812,77.7172828232259,General,
168.0,174,Mahadevapura,83.0,Kadugodi,12056.0,10149.0,4557.0,172.0,22205.0,11.88,12.9906877302874,77.7579088952072,General,
169.0,174,Mahadevapura,84.0,Hagadur,13523.0,12392.0,3664.0,211.0,25915.0,12.68,12.9660702018756,77.7483647412138,Backward Category - B,
170.0,174,Mahadevapura,85.0,Dodda Nekkundi,11790.0,10226.0,4283.0,343.0,22016.0,12.12,12.9681828471219,77.707823685904,General,
171.0,175,Bommana Halli,174.0,HSR Layout,13215.0,11534.0,2723.0,303.0,24749.0,6.98,12.9137178618362,77.6464258750019,General (Women),
172.0,175,Bommana Halli,175.0,Bommanahalli,13065.0,11242.0,2767.0,138.0,24307.0,1.85,12.9007411057792,77.6212117570716,General,
173.0,175,Bommana Halli,186.0,Jaraganahalli,12519.0,10780.0,830.0,248.0,23299.0,1.28,12.9004208934461,77.5774880640308,General (Women),
174.0,175,Bommana Halli,187.0,Puttenahalli,11094.0,9450.0,1176.0,383.0,20544.0,2.87,12.8973177493566,77.5906030466232,Backward Category - A,
175.0,175,Bommana Halli,188.0,Bilekhalli,12050.0,10460.0,3988.0,260.0,22510.0,4.24,12.8991566741957,77.6101589622278,General (Women),
176.0,175,Bommana Halli,189.0,Hongasandra,12307.0,10751.0,1529.0,282.0,23058.0,2.16,12.8967688850618,77.6275171672937,Backward Category - B (Woman),
177.0,175,Bommana Halli,190.0,Mangammanapalya,14625.0,12766.0,1918.0,159.0,27391.0,3.52,12.8961667446936,77.6418230888484,Backward Category A (Women),
178.0,175,Bommana Halli,191.0,Singasandra,11669.0,9741.0,2955.0,148.0,21410.0,9.42,12.8811660685851,77.6576553298784,General (Women),
179.0,175,Bommana Halli,193.0,Arakere,13429.0,11574.0,3311.0,258.0,25003.0,6.45,12.8792199135841,77.602883732267,General,
180.0,176,Bangalore South,184.0,Uttarahalli,11461.0,10384.0,3960.0,449.0,21845.0,8.99,12.9002644029525,77.5370809453946,Backward Category - A,
181.0,176,Bangalore South,185.0,Yelchenahalli,14896.0,13104.0,2108.0,249.0,28000.0,1.58,12.9002286761175,77.5670140722376,Backward Category - A,
182.0,176,Bangalore South,192.0,Begur,9899.0,9388.0,3488.0,148.0,19287.0,18.8,12.8649996624606,77.6220696892561,Backward Category - B,
183.0,176,Bangalore South,194.0,Gottigere,11402.0,10124.0,3487.0,891.0,21526.0,6.49,12.8605912628746,77.5821324498369,Backward Category - B (Woman),
184.0,176,Bangalore South,195.0,Konankunte,10662.0,9519.0,1032.0,173.0,20181.0,3.42,12.8857748274409,77.5799014456152,General (Women),
185.0,176,Bangalore South,196.0,Anjanapura,10787.0,10293.0,2671.0,226.0,21080.0,11.92,12.8595876761862,77.5632856881322,General,
186.0,150,Yelahanka,1.0,Kempegowda Ward,11490.0,10376.0,1912.0,430.0,21866.0,10.47,13.116188361395,77.5997134995341,Backward Category - B,
187.0,151,K.R. Puram,52.0,K R Puram,13912.0,12573.0,2483.0,491.0,26485.0,5.12,13.0177984033219,77.6984440627829,General,
188.0,154,Rajarajeswari Nagar,129.0,Jnana Bharathi ward,13758.0,12131.0,3732.0,649.0,25889.0,12.19,12.9593058007956,77.5017879872547,Backward Category - B,
189.0,173,Jaya Nagar,170.0,Jayanagar East,15964.0,14882.0,5274.0,188.0,30846.0,1.01,12.9211063701817,77.5986397560155,Backward Category - A,
190.0,173,Jaya Nagar,171.0,Gurappanapalya,18839.0,16989.0,950.0,87.0,35828.0,0.68,12.922866401542,77.6046151492465,General,
191.0,171,Padmanaba Nagar,183.0,Chikkalsandra,12995.0,11682.0,519.0,145.0,24677.0,1.09,12.9216847932897,77.548407399626,General,
192.0,176,Bangalore South,197.0,Vasanthpura,13057.0,11465.0,2425.0,483.0,24522.0,5.34,12.8914219220501,77.556846034107,General (Women),
193.0,173,Jaya Nagar,177.0,J P Nagar,14747.0,13761.0,2497.0,457.0,28508.0,1.79,12.9108817569626,77.5945067654985,Backward Category - A,
194.0,172,B.T.M. Layout,172.0,Madivala,19121.0,16034.0,2658.0,555.0,35155.0,1.16,12.9200182348871,77.6144183930996,Backward Category - A,
195.0,151,K.R. Puram,26.0,Ramamurthy Nagar,11330.0,10669.0,3489.0,247.0,21999.0,7.87,13.033613125226,77.6765386686356,Backward Category - A,
196.0,151,K.R. Puram,25.0,Horamavu,14696.0,13471.0,5677.0,666.0,28167.0,17.32,13.0445613371022,77.6532708062347,General (Women),
197.0,174,Mahadevapura,86.0,Marathahalli,11967.0,10522.0,4126.0,274.0,22489.0,3.1,12.9507430630886,77.6914952440871,General (Women),
198.0,153,Yeshwantpura,198.0,Hemmigepura,12926.0,11385.0,3997.0,319.0,24311.0,28.59,12.8919033428845,77.5050129669143,Backward Category A (Women),
